location_id,country,city,latitude,longitude
1,Greece,Athens,37.9838,23.7275
2,Greece,Thessaloniki,40.6401,22.9444
3,Greece,Heraklion,35.3387,25.1442
4,Spain,Madrid,40.4168,-3.7038
5,Spain,Barcelona,41.3851,2.1734
6,Spain,Seville,37.3891,-5.9845
7,Italy,Rome,41.9028,12.4964
8,Italy,Milan,45.4642,9.19
9,Italy,Naples,40.8518,14.2681
